[
  {
    "id": "jfk-airport",
    "name": "New York JFK International Airport",
    "slug": "jfk-airport",
    "type": "airport",
    "city": "New York",
    "country": "United States",
    "countryCode": "US",
    "region": "north-america",
    "lat": 40.6413,
    "lon": -73.7781,
    "currency": "USD",
    "costIndex": 1.35,
    "airportCode": "JFK",
    "oneWaySupported": true,
    "crossBorderAllowed": false
  },
  {
    "id": "lax-airport",
    "name": "Los Angeles International Airport",
    "slug": "lax-airport",
    "type": "airport",
    "city": "Los Angeles",
    "country": "United States",
    "countryCode": "US",
    "region": "north-america",
    "lat": 33.9416,
    "lon": -118.4085,
    "currency": "USD",
    "costIndex": 1.25,
    "airportCode": "LAX",
    "oneWaySupported": true,
    "crossBorderAllowed": false
  },
  {
    "id": "mia-airport",
    "name": "Miami International Airport",
    "slug": "mia-airport",
    "type": "airport",
    "city": "Miami",
    "country": "United States",
    "countryCode": "US",
    "region": "north-america",
    "lat": 25.7959,
    "lon": -80.287,
    "currency": "USD",
    "costIndex": 1.2,
    "airportCode": "MIA",
    "oneWaySupported": true,
    "crossBorderAllowed": false
  },
  {
    "id": "ord-airport",
    "name": "Chicago O'Hare International Airport",
    "slug": "ord-airport",
    "type": "airport",
    "city": "Chicago",
    "country": "United States",
    "countryCode": "US",
    "region": "north-america",
    "lat": 41.9742,
    "lon": -87.9073,
    "currency": "USD",
    "costIndex": 1.2,
    "airportCode": "ORD",
    "oneWaySupported": true,
    "crossBorderAllowed": false
  },
  {
    "id": "mco-airport",
    "name": "Orlando International Airport",
    "slug": "mco-airport",
    "type": "airport",
    "city": "Orlando",
    "country": "United States",
    "countryCode": "US",
    "region": "north-america",
    "lat": 28.4312,
    "lon": -81.3081,
    "currency": "USD",
    "costIndex": 1.1,
    "airportCode": "MCO",
    "oneWaySupported": true,
    "crossBorderAllowed": false
  },
  {
    "id": "las-airport",
    "name": "Las Vegas Harry Reid International Airport",
    "slug": "las-airport",
    "type": "airport",
    "city": "Las Vegas",
    "country": "United States",
    "countryCode": "US",
    "region": "north-america",
    "lat": 36.086,
    "lon": -115.1539,
    "currency": "USD",
    "costIndex": 1.1,
    "airportCode": "LAS",
    "oneWaySupported": true,
    "crossBorderAllowed": false
  },
  {
    "id": "sfo-airport",
    "name": "San Francisco International Airport",
    "slug": "sfo-airport",
    "type": "airport",
    "city": "San Francisco",
    "country": "United States",
    "countryCode": "US",
    "region": "north-america",
    "lat": 37.6213,
    "lon": -122.379,
    "currency": "USD",
    "costIndex": 1.35,
    "airportCode": "SFO",
    "oneWaySupported": true,
    "crossBorderAllowed": false
  },
  {
    "id": "dfw-airport",
    "name": "Dallas/Fort Worth International Airport",
    "slug": "dfw-airport",
    "type": "airport",
    "city": "Dallas",
    "country": "United States",
    "countryCode": "US",
    "region": "north-america",
    "lat": 32.8998,
    "lon": -97.0403,
    "currency": "USD",
    "costIndex": 1.1,
    "airportCode": "DFW",
    "oneWaySupported": true,
    "crossBorderAllowed": false
  },
  {
    "id": "sea-airport",
    "name": "Seattle-Tacoma International Airport",
    "slug": "sea-airport",
    "type": "airport",
    "city": "Seattle",
    "country": "United States",
    "countryCode": "US",
    "region": "north-america",
    "lat": 47.4502,
    "lon": -122.3088,
    "currency": "USD",
    "costIndex": 1.2,
    "airportCode": "SEA",
    "oneWaySupported": true,
    "crossBorderAllowed": false
  },
  {
    "id": "yyz-airport",
    "name": "Toronto Pearson International Airport",
    "slug": "yyz-airport",
    "type": "airport",
    "city": "Toronto",
    "country": "Canada",
    "countryCode": "CA",
    "region": "north-america",
    "lat": 43.6777,
    "lon": -79.6248,
    "currency": "CAD",
    "costIndex": 1.15,
    "airportCode": "YYZ",
    "oneWaySupported": true,
    "crossBorderAllowed": true
  },
  {
    "id": "yvr-airport",
    "name": "Vancouver International Airport",
    "slug": "yvr-airport",
    "type": "airport",
    "city": "Vancouver",
    "country": "Canada",
    "countryCode": "CA",
    "region": "north-america",
    "lat": 49.1967,
    "lon": -123.1815,
    "currency": "CAD",
    "costIndex": 1.15,
    "airportCode": "YVR",
    "oneWaySupported": true,
    "crossBorderAllowed": true
  },
  {
    "id": "mex-airport",
    "name": "Mexico City International Airport",
    "slug": "mex-airport",
    "type": "airport",
    "city": "Mexico City",
    "country": "Mexico",
    "countryCode": "MX",
    "region": "north-america",
    "lat": 19.4363,
    "lon": -99.0721,
    "currency": "MXN",
    "costIndex": 0.75,
    "airportCode": "MEX",
    "oneWaySupported": true,
    "crossBorderAllowed": false
  },
  {
    "id": "cun-airport",
    "name": "Cancún International Airport",
    "slug": "cun-airport",
    "type": "airport",
    "city": "Cancún",
    "country": "Mexico",
    "countryCode": "MX",
    "region": "north-america",
    "lat": 21.0365,
    "lon": -86.8771,
    "currency": "MXN",
    "costIndex": 0.85,
    "airportCode": "CUN",
    "oneWaySupported": true,
    "crossBorderAllowed": false
  },
  {
    "id": "manhattan-downtown",
    "name": "Manhattan Midtown Office",
    "slug": "manhattan-downtown",
    "type": "downtown",
    "city": "New York",
    "country": "United States",
    "countryCode": "US",
    "region": "north-america",
    "lat": 40.7549,
    "lon": -73.984,
    "currency": "USD",
    "costIndex": 1.45,
    "oneWaySupported": true,
    "crossBorderAllowed": false
  },
  {
    "id": "miami-cruise-port",
    "name": "PortMiami Cruise Terminal Desk",
    "slug": "miami-cruise-port",
    "type": "cruise-port",
    "city": "Miami",
    "country": "United States",
    "countryCode": "US",
    "region": "north-america",
    "lat": 25.7781,
    "lon": -80.1774,
    "currency": "USD",
    "costIndex": 1.25,
    "oneWaySupported": true,
    "crossBorderAllowed": false
  },
  {
    "id": "la-downtown",
    "name": "Downtown Los Angeles Office",
    "slug": "la-downtown",
    "type": "downtown",
    "city": "Los Angeles",
    "country": "United States",
    "countryCode": "US",
    "region": "north-america",
    "lat": 34.0407,
    "lon": -118.2468,
    "currency": "USD",
    "costIndex": 1.2,
    "oneWaySupported": true,
    "crossBorderAllowed": false
  },
  {
    "id": "orlando-downtown",
    "name": "Orlando International Drive Office",
    "slug": "orlando-downtown",
    "type": "city-office",
    "city": "Orlando",
    "country": "United States",
    "countryCode": "US",
    "region": "north-america",
    "lat": 28.4744,
    "lon": -81.4679,
    "currency": "USD",
    "costIndex": 1,
    "oneWaySupported": true,
    "crossBorderAllowed": false
  },
  {
    "id": "toronto-union-station",
    "name": "Toronto Union Station Rail Desk",
    "slug": "toronto-union-station",
    "type": "rail-station",
    "city": "Toronto",
    "country": "Canada",
    "countryCode": "CA",
    "region": "north-america",
    "lat": 43.6453,
    "lon": -79.3806,
    "currency": "CAD",
    "costIndex": 1.1,
    "oneWaySupported": true,
    "crossBorderAllowed": true
  },
  {
    "id": "lhr-airport",
    "name": "London Heathrow Airport",
    "slug": "lhr-airport",
    "type": "airport",
    "city": "London",
    "country": "United Kingdom",
    "countryCode": "GB",
    "region": "europe",
    "lat": 51.47,
    "lon": -0.4543,
    "currency": "GBP",
    "costIndex": 1.3,
    "airportCode": "LHR",
    "oneWaySupported": true,
    "crossBorderAllowed": true
  },
  {
    "id": "lgw-airport",
    "name": "London Gatwick Airport",
    "slug": "lgw-airport",
    "type": "airport",
    "city": "London",
    "country": "United Kingdom",
    "countryCode": "GB",
    "region": "europe",
    "lat": 51.1537,
    "lon": -0.1821,
    "currency": "GBP",
    "costIndex": 1.2,
    "airportCode": "LGW",
    "oneWaySupported": true,
    "crossBorderAllowed": true
  },
  {
    "id": "cdg-airport",
    "name": "Paris Charles de Gaulle Airport",
    "slug": "cdg-airport",
    "type": "airport",
    "city": "Paris",
    "country": "France",
    "countryCode": "FR",
    "region": "europe",
    "lat": 49.0097,
    "lon": 2.5479,
    "currency": "EUR",
    "costIndex": 1.25,
    "airportCode": "CDG",
    "oneWaySupported": true,
    "crossBorderAllowed": true
  },
  {
    "id": "fra-airport",
    "name": "Frankfurt Airport",
    "slug": "fra-airport",
    "type": "airport",
    "city": "Frankfurt",
    "country": "Germany",
    "countryCode": "DE",
    "region": "europe",
    "lat": 50.0379,
    "lon": 8.5622,
    "currency": "EUR",
    "costIndex": 1.2,
    "airportCode": "FRA",
    "oneWaySupported": true,
    "crossBorderAllowed": true
  },
  {
    "id": "muc-airport",
    "name": "Munich Airport",
    "slug": "muc-airport",
    "type": "airport",
    "city": "Munich",
    "country": "Germany",
    "countryCode": "DE",
    "region": "europe",
    "lat": 48.3538,
    "lon": 11.7861,
    "currency": "EUR",
    "costIndex": 1.2,
    "airportCode": "MUC",
    "oneWaySupported": true,
    "crossBorderAllowed": true
  },
  {
    "id": "mad-airport",
    "name": "Madrid-Barajas Airport",
    "slug": "mad-airport",
    "type": "airport",
    "city": "Madrid",
    "country": "Spain",
    "countryCode": "ES",
    "region": "europe",
    "lat": 40.4983,
    "lon": -3.5676,
    "currency": "EUR",
    "costIndex": 1,
    "airportCode": "MAD",
    "oneWaySupported": true,
    "crossBorderAllowed": true
  },
  {
    "id": "bcn-airport",
    "name": "Barcelona-El Prat Airport",
    "slug": "bcn-airport",
    "type": "airport",
    "city": "Barcelona",
    "country": "Spain",
    "countryCode": "ES",
    "region": "europe",
    "lat": 41.2974,
    "lon": 2.0833,
    "currency": "EUR",
    "costIndex": 1.05,
    "airportCode": "BCN",
    "oneWaySupported": true,
    "crossBorderAllowed": true
  },
  {
    "id": "fco-airport",
    "name": "Rome Fiumicino Airport",
    "slug": "fco-airport",
    "type": "airport",
    "city": "Rome",
    "country": "Italy",
    "countryCode": "IT",
    "region": "europe",
    "lat": 41.8003,
    "lon": 12.2389,
    "currency": "EUR",
    "costIndex": 1.1,
    "airportCode": "FCO",
    "oneWaySupported": true,
    "crossBorderAllowed": true
  },
  {
    "id": "mxp-airport",
    "name": "Milan Malpensa Airport",
    "slug": "mxp-airport",
    "type": "airport",
    "city": "Milan",
    "country": "Italy",
    "countryCode": "IT",
    "region": "europe",
    "lat": 45.63,
    "lon": 8.7231,
    "currency": "EUR",
    "costIndex": 1.1,
    "airportCode": "MXP",
    "oneWaySupported": true,
    "crossBorderAllowed": true
  },
  {
    "id": "ams-airport",
    "name": "Amsterdam Schiphol Airport",
    "slug": "ams-airport",
    "type": "airport",
    "city": "Amsterdam",
    "country": "Netherlands",
    "countryCode": "NL",
    "region": "europe",
    "lat": 52.3105,
    "lon": 4.7683,
    "currency": "EUR",
    "costIndex": 1.25,
    "airportCode": "AMS",
    "oneWaySupported": true,
    "crossBorderAllowed": true
  },
  {
    "id": "zrh-airport",
    "name": "Zurich Airport",
    "slug": "zrh-airport",
    "type": "airport",
    "city": "Zurich",
    "country": "Switzerland",
    "countryCode": "CH",
    "region": "europe",
    "lat": 47.4582,
    "lon": 8.5555,
    "currency": "CHF",
    "costIndex": 1.5,
    "airportCode": "ZRH",
    "oneWaySupported": true,
    "crossBorderAllowed": true
  },
  {
    "id": "vie-airport",
    "name": "Vienna International Airport",
    "slug": "vie-airport",
    "type": "airport",
    "city": "Vienna",
    "country": "Austria",
    "countryCode": "AT",
    "region": "europe",
    "lat": 48.1103,
    "lon": 16.5697,
    "currency": "EUR",
    "costIndex": 1.15,
    "airportCode": "VIE",
    "oneWaySupported": true,
    "crossBorderAllowed": true
  },
  {
    "id": "lis-airport",
    "name": "Lisbon Humberto Delgado Airport",
    "slug": "lis-airport",
    "type": "airport",
    "city": "Lisbon",
    "country": "Portugal",
    "countryCode": "PT",
    "region": "europe",
    "lat": 38.7756,
    "lon": -9.1354,
    "currency": "EUR",
    "costIndex": 0.95,
    "airportCode": "LIS",
    "oneWaySupported": true,
    "crossBorderAllowed": true
  },
  {
    "id": "ath-airport",
    "name": "Athens International Airport",
    "slug": "ath-airport",
    "type": "airport",
    "city": "Athens",
    "country": "Greece",
    "countryCode": "GR",
    "region": "europe",
    "lat": 37.9364,
    "lon": 23.9445,
    "currency": "EUR",
    "costIndex": 0.95,
    "airportCode": "ATH",
    "oneWaySupported": true,
    "crossBorderAllowed": false
  },
  {
    "id": "dub-airport",
    "name": "Dublin Airport",
    "slug": "dub-airport",
    "type": "airport",
    "city": "Dublin",
    "country": "Ireland",
    "countryCode": "IE",
    "region": "europe",
    "lat": 53.4264,
    "lon": -6.2499,
    "currency": "EUR",
    "costIndex": 1.15,
    "airportCode": "DUB",
    "oneWaySupported": true,
    "crossBorderAllowed": false
  },
  {
    "id": "ist-airport",
    "name": "Istanbul Airport",
    "slug": "ist-airport",
    "type": "airport",
    "city": "Istanbul",
    "country": "Turkey",
    "countryCode": "TR",
    "region": "europe",
    "lat": 41.2753,
    "lon": 28.7519,
    "currency": "TRY",
    "costIndex": 0.8,
    "airportCode": "IST",
    "oneWaySupported": true,
    "crossBorderAllowed": false
  },
  {
    "id": "ayt-airport",
    "name": "Antalya Airport",
    "slug": "ayt-airport",
    "type": "airport",
    "city": "Antalya",
    "country": "Turkey",
    "countryCode": "TR",
    "region": "europe",
    "lat": 36.8987,
    "lon": 30.8005,
    "currency": "TRY",
    "costIndex": 0.75,
    "airportCode": "AYT",
    "oneWaySupported": true,
    "crossBorderAllowed": false
  },
  {
    "id": "st-pancras-rail",
    "name": "London St Pancras International Rail Desk",
    "slug": "st-pancras-rail",
    "type": "rail-station",
    "city": "London",
    "country": "United Kingdom",
    "countryCode": "GB",
    "region": "europe",
    "lat": 51.5322,
    "lon": -0.1263,
    "currency": "GBP",
    "costIndex": 1.25,
    "oneWaySupported": true,
    "crossBorderAllowed": true
  },
  {
    "id": "gare-de-lyon-rail",
    "name": "Paris Gare de Lyon Rail Desk",
    "slug": "gare-de-lyon-rail",
    "type": "rail-station",
    "city": "Paris",
    "country": "France",
    "countryCode": "FR",
    "region": "europe",
    "lat": 48.8443,
    "lon": 2.3743,
    "currency": "EUR",
    "costIndex": 1.2,
    "oneWaySupported": true,
    "crossBorderAllowed": true
  },
  {
    "id": "berlin-hbf-rail",
    "name": "Berlin Hauptbahnhof Rail Desk",
    "slug": "berlin-hbf-rail",
    "type": "rail-station",
    "city": "Berlin",
    "country": "Germany",
    "countryCode": "DE",
    "region": "europe",
    "lat": 52.525,
    "lon": 13.3694,
    "currency": "EUR",
    "costIndex": 1.1,
    "oneWaySupported": true,
    "crossBorderAllowed": true
  },
  {
    "id": "barcelona-cruise-port",
    "name": "Barcelona Cruise Terminal Desk",
    "slug": "barcelona-cruise-port",
    "type": "cruise-port",
    "city": "Barcelona",
    "country": "Spain",
    "countryCode": "ES",
    "region": "europe",
    "lat": 41.3772,
    "lon": 2.1812,
    "currency": "EUR",
    "costIndex": 1.1,
    "oneWaySupported": true,
    "crossBorderAllowed": true
  },
  {
    "id": "civitavecchia-cruise-port",
    "name": "Civitavecchia (Rome) Cruise Terminal Desk",
    "slug": "civitavecchia-cruise-port",
    "type": "cruise-port",
    "city": "Rome",
    "country": "Italy",
    "countryCode": "IT",
    "region": "europe",
    "lat": 42.0963,
    "lon": 11.7891,
    "currency": "EUR",
    "costIndex": 1.1,
    "oneWaySupported": true,
    "crossBorderAllowed": false
  },
  {
    "id": "paris-downtown",
    "name": "Paris Opéra District Office",
    "slug": "paris-downtown",
    "type": "downtown",
    "city": "Paris",
    "country": "France",
    "countryCode": "FR",
    "region": "europe",
    "lat": 48.8709,
    "lon": 2.3323,
    "currency": "EUR",
    "costIndex": 1.25,
    "oneWaySupported": true,
    "crossBorderAllowed": true
  },
  {
    "id": "rome-downtown",
    "name": "Rome Termini District Office",
    "slug": "rome-downtown",
    "type": "downtown",
    "city": "Rome",
    "country": "Italy",
    "countryCode": "IT",
    "region": "europe",
    "lat": 41.9011,
    "lon": 12.5011,
    "currency": "EUR",
    "costIndex": 1.05,
    "oneWaySupported": true,
    "crossBorderAllowed": true
  },
  {
    "id": "dxb-airport",
    "name": "Dubai International Airport",
    "slug": "dxb-airport",
    "type": "airport",
    "city": "Dubai",
    "country": "United Arab Emirates",
    "countryCode": "AE",
    "region": "middle-east",
    "lat": 25.2532,
    "lon": 55.3657,
    "currency": "AED",
    "costIndex": 1.15,
    "airportCode": "DXB",
    "oneWaySupported": true,
    "crossBorderAllowed": false
  },
  {
    "id": "dubai-downtown",
    "name": "Dubai Downtown / Sheikh Zayed Road Office",
    "slug": "dubai-downtown",
    "type": "downtown",
    "city": "Dubai",
    "country": "United Arab Emirates",
    "countryCode": "AE",
    "region": "middle-east",
    "lat": 25.2048,
    "lon": 55.2708,
    "currency": "AED",
    "costIndex": 1.1,
    "oneWaySupported": true,
    "crossBorderAllowed": false
  },
  {
    "id": "auh-airport",
    "name": "Abu Dhabi Zayed International Airport",
    "slug": "auh-airport",
    "type": "airport",
    "city": "Abu Dhabi",
    "country": "United Arab Emirates",
    "countryCode": "AE",
    "region": "middle-east",
    "lat": 24.4539,
    "lon": 54.6511,
    "currency": "AED",
    "costIndex": 1.1,
    "airportCode": "AUH",
    "oneWaySupported": true,
    "crossBorderAllowed": false
  },
  {
    "id": "doh-airport",
    "name": "Doha Hamad International Airport",
    "slug": "doh-airport",
    "type": "airport",
    "city": "Doha",
    "country": "Qatar",
    "countryCode": "QA",
    "region": "middle-east",
    "lat": 25.2731,
    "lon": 51.6081,
    "currency": "QAR",
    "costIndex": 1.15,
    "airportCode": "DOH",
    "oneWaySupported": true,
    "crossBorderAllowed": false
  },
  {
    "id": "jed-airport",
    "name": "Jeddah King Abdulaziz International Airport",
    "slug": "jed-airport",
    "type": "airport",
    "city": "Jeddah",
    "country": "Saudi Arabia",
    "countryCode": "SA",
    "region": "middle-east",
    "lat": 21.6796,
    "lon": 39.1565,
    "currency": "SAR",
    "costIndex": 1,
    "airportCode": "JED",
    "oneWaySupported": true,
    "crossBorderAllowed": false
  },
  {
    "id": "tlv-airport",
    "name": "Tel Aviv Ben Gurion Airport",
    "slug": "tlv-airport",
    "type": "airport",
    "city": "Tel Aviv",
    "country": "Israel",
    "countryCode": "IL",
    "region": "middle-east",
    "lat": 32.0055,
    "lon": 34.8854,
    "currency": "ILS",
    "costIndex": 1.2,
    "airportCode": "TLV",
    "oneWaySupported": true,
    "crossBorderAllowed": false
  },
  {
    "id": "del-airport",
    "name": "Delhi Indira Gandhi International Airport",
    "slug": "del-airport",
    "type": "airport",
    "city": "New Delhi",
    "country": "India",
    "countryCode": "IN",
    "region": "asia",
    "lat": 28.5562,
    "lon": 77.1,
    "currency": "INR",
    "costIndex": 0.55,
    "airportCode": "DEL",
    "oneWaySupported": true,
    "crossBorderAllowed": false
  },
  {
    "id": "bom-airport",
    "name": "Mumbai Chhatrapati Shivaji Maharaj International Airport",
    "slug": "bom-airport",
    "type": "airport",
    "city": "Mumbai",
    "country": "India",
    "countryCode": "IN",
    "region": "asia",
    "lat": 19.0896,
    "lon": 72.8656,
    "currency": "INR",
    "costIndex": 0.55,
    "airportCode": "BOM",
    "oneWaySupported": true,
    "crossBorderAllowed": false
  },
  {
    "id": "sin-airport",
    "name": "Singapore Changi Airport",
    "slug": "sin-airport",
    "type": "airport",
    "city": "Singapore",
    "country": "Singapore",
    "countryCode": "SG",
    "region": "asia",
    "lat": 1.3644,
    "lon": 103.9915,
    "currency": "SGD",
    "costIndex": 1.35,
    "airportCode": "SIN",
    "oneWaySupported": true,
    "crossBorderAllowed": false
  },
  {
    "id": "hnd-airport",
    "name": "Tokyo Haneda Airport",
    "slug": "hnd-airport",
    "type": "airport",
    "city": "Tokyo",
    "country": "Japan",
    "countryCode": "JP",
    "region": "asia",
    "lat": 35.5494,
    "lon": 139.7798,
    "currency": "JPY",
    "costIndex": 1.2,
    "airportCode": "HND",
    "oneWaySupported": true,
    "crossBorderAllowed": false
  },
  {
    "id": "kix-airport",
    "name": "Osaka Kansai International Airport",
    "slug": "kix-airport",
    "type": "airport",
    "city": "Osaka",
    "country": "Japan",
    "countryCode": "JP",
    "region": "asia",
    "lat": 34.4342,
    "lon": 135.2328,
    "currency": "JPY",
    "costIndex": 1.15,
    "airportCode": "KIX",
    "oneWaySupported": true,
    "crossBorderAllowed": false
  },
  {
    "id": "icn-airport",
    "name": "Seoul Incheon International Airport",
    "slug": "icn-airport",
    "type": "airport",
    "city": "Seoul",
    "country": "South Korea",
    "countryCode": "KR",
    "region": "asia",
    "lat": 37.4602,
    "lon": 126.4407,
    "currency": "KRW",
    "costIndex": 1.1,
    "airportCode": "ICN",
    "oneWaySupported": true,
    "crossBorderAllowed": false
  },
  {
    "id": "bkk-airport",
    "name": "Bangkok Suvarnabhumi Airport",
    "slug": "bkk-airport",
    "type": "airport",
    "city": "Bangkok",
    "country": "Thailand",
    "countryCode": "TH",
    "region": "asia",
    "lat": 13.69,
    "lon": 100.7501,
    "currency": "THB",
    "costIndex": 0.65,
    "airportCode": "BKK",
    "oneWaySupported": true,
    "crossBorderAllowed": false
  },
  {
    "id": "kul-airport",
    "name": "Kuala Lumpur International Airport",
    "slug": "kul-airport",
    "type": "airport",
    "city": "Kuala Lumpur",
    "country": "Malaysia",
    "countryCode": "MY",
    "region": "asia",
    "lat": 2.7456,
    "lon": 101.7099,
    "currency": "MYR",
    "costIndex": 0.6,
    "airportCode": "KUL",
    "oneWaySupported": true,
    "crossBorderAllowed": false
  },
  {
    "id": "hkg-airport",
    "name": "Hong Kong International Airport",
    "slug": "hkg-airport",
    "type": "airport",
    "city": "Hong Kong",
    "country": "Hong Kong SAR",
    "countryCode": "HK",
    "region": "asia",
    "lat": 22.308,
    "lon": 113.9185,
    "currency": "HKD",
    "costIndex": 1.3,
    "airportCode": "HKG",
    "oneWaySupported": true,
    "crossBorderAllowed": false
  },
  {
    "id": "dps-airport",
    "name": "Bali Ngurah Rai International Airport",
    "slug": "dps-airport",
    "type": "airport",
    "city": "Denpasar",
    "country": "Indonesia",
    "countryCode": "ID",
    "region": "asia",
    "lat": -8.7482,
    "lon": 115.1672,
    "currency": "IDR",
    "costIndex": 0.55,
    "airportCode": "DPS",
    "oneWaySupported": true,
    "crossBorderAllowed": false
  },
  {
    "id": "syd-airport",
    "name": "Sydney Kingsford Smith Airport",
    "slug": "syd-airport",
    "type": "airport",
    "city": "Sydney",
    "country": "Australia",
    "countryCode": "AU",
    "region": "oceania",
    "lat": -33.9399,
    "lon": 151.1753,
    "currency": "AUD",
    "costIndex": 1.2,
    "airportCode": "SYD",
    "oneWaySupported": true,
    "crossBorderAllowed": false
  },
  {
    "id": "mel-airport",
    "name": "Melbourne Airport",
    "slug": "mel-airport",
    "type": "airport",
    "city": "Melbourne",
    "country": "Australia",
    "countryCode": "AU",
    "region": "oceania",
    "lat": -37.669,
    "lon": 144.841,
    "currency": "AUD",
    "costIndex": 1.15,
    "airportCode": "MEL",
    "oneWaySupported": true,
    "crossBorderAllowed": false
  },
  {
    "id": "akl-airport",
    "name": "Auckland Airport",
    "slug": "akl-airport",
    "type": "airport",
    "city": "Auckland",
    "country": "New Zealand",
    "countryCode": "NZ",
    "region": "oceania",
    "lat": -37.0082,
    "lon": 174.785,
    "currency": "NZD",
    "costIndex": 1.15,
    "airportCode": "AKL",
    "oneWaySupported": true,
    "crossBorderAllowed": false
  },
  {
    "id": "sydney-downtown",
    "name": "Sydney CBD Office",
    "slug": "sydney-downtown",
    "type": "downtown",
    "city": "Sydney",
    "country": "Australia",
    "countryCode": "AU",
    "region": "oceania",
    "lat": -33.8688,
    "lon": 151.2093,
    "currency": "AUD",
    "costIndex": 1.15,
    "oneWaySupported": true,
    "crossBorderAllowed": false
  },
  {
    "id": "gru-airport",
    "name": "São Paulo/Guarulhos International Airport",
    "slug": "gru-airport",
    "type": "airport",
    "city": "São Paulo",
    "country": "Brazil",
    "countryCode": "BR",
    "region": "south-america",
    "lat": -23.4356,
    "lon": -46.4731,
    "currency": "BRL",
    "costIndex": 0.7,
    "airportCode": "GRU",
    "oneWaySupported": true,
    "crossBorderAllowed": false
  },
  {
    "id": "eze-airport",
    "name": "Buenos Aires Ezeiza International Airport",
    "slug": "eze-airport",
    "type": "airport",
    "city": "Buenos Aires",
    "country": "Argentina",
    "countryCode": "AR",
    "region": "south-america",
    "lat": -34.8222,
    "lon": -58.5358,
    "currency": "ARS",
    "costIndex": 0.65,
    "airportCode": "EZE",
    "oneWaySupported": true,
    "crossBorderAllowed": false
  },
  {
    "id": "scl-airport",
    "name": "Santiago Arturo Merino Benítez Airport",
    "slug": "scl-airport",
    "type": "airport",
    "city": "Santiago",
    "country": "Chile",
    "countryCode": "CL",
    "region": "south-america",
    "lat": -33.393,
    "lon": -70.7858,
    "currency": "CLP",
    "costIndex": 0.75,
    "airportCode": "SCL",
    "oneWaySupported": true,
    "crossBorderAllowed": false
  },
  {
    "id": "cpt-airport",
    "name": "Cape Town International Airport",
    "slug": "cpt-airport",
    "type": "airport",
    "city": "Cape Town",
    "country": "South Africa",
    "countryCode": "ZA",
    "region": "africa",
    "lat": -33.9715,
    "lon": 18.6021,
    "currency": "ZAR",
    "costIndex": 0.7,
    "airportCode": "CPT",
    "oneWaySupported": true,
    "crossBorderAllowed": false
  },
  {
    "id": "jnb-airport",
    "name": "Johannesburg O.R. Tambo International Airport",
    "slug": "jnb-airport",
    "type": "airport",
    "city": "Johannesburg",
    "country": "South Africa",
    "countryCode": "ZA",
    "region": "africa",
    "lat": -26.1367,
    "lon": 28.246,
    "currency": "ZAR",
    "costIndex": 0.7,
    "airportCode": "JNB",
    "oneWaySupported": true,
    "crossBorderAllowed": false
  },
  {
    "id": "cmn-airport",
    "name": "Casablanca Mohammed V International Airport",
    "slug": "cmn-airport",
    "type": "airport",
    "city": "Casablanca",
    "country": "Morocco",
    "countryCode": "MA",
    "region": "africa",
    "lat": 33.3675,
    "lon": -7.5898,
    "currency": "MAD",
    "costIndex": 0.6,
    "airportCode": "CMN",
    "oneWaySupported": true,
    "crossBorderAllowed": false
  },
  {
    "id": "nbo-airport",
    "name": "Nairobi Jomo Kenyatta International Airport",
    "slug": "nbo-airport",
    "type": "airport",
    "city": "Nairobi",
    "country": "Kenya",
    "countryCode": "KE",
    "region": "africa",
    "lat": -1.3192,
    "lon": 36.9278,
    "currency": "KES",
    "costIndex": 0.65,
    "airportCode": "NBO",
    "oneWaySupported": true,
    "crossBorderAllowed": false
  }
]